{
    "Browser History": [
            {
            "page_transition": "LINK",
            "title": "Macosx",
            "url": "https://Macosx.com/",
            "client_id": "JHeMcdEvfO7XYJn+I0xx1w\u003d\u003d",
            "time_usec": 1529923939641696
},
        {
            "page_transition": "LINK",
            "title": "Macosx",
            "url": "https://Macosx.com/",
            "client_id": "JHeMcdEvfO7XYJn+I0xx1w\u003d\u003d",
            "time_usec": 1529923939641696
},
            {
            "page_transition": "LINK",
            "title": "Macosx",
            "url": "https://Macosx.com/",
            "client_id": "JHeMcdEvfO7XYJn+I0xx1w\u003d\u003d",
            "time_usec": 1529923939641696
},
        {
            "page_transition": "LINK",
            "title": "Macosx",
            "url": "https://Macosx.com/",
            "client_id": "JHeMcdEvfO7XYJn+I0xx1w\u003d\u003d",
            "time_usec": 1529923939641696
},
            {
            "page_transition": "LINK",
            "title": "Macosx",
            "url": "https://Macosx.com/",
            "client_id": "JHeMcdEvfO7XYJn+I0xx1w\u003d\u003d",
            "time_usec": 1529923939641696
},
        {
            "page_transition": "LINK",
            "title": "Macosx",
            "url": "https://Macosx.com/",
            "client_id": "JHeMcdEvfO7XYJn+I0xx1w\u003d\u003d",
            "time_usec": 1529923939641696
},
            {
            "page_transition": "LINK",
            "title": "Macosx",
            "url": "https://Macosx.com/",
            "client_id": "JHeMcdEvfO7XYJn+I0xx1w\u003d\u003d",
            "time_usec": 1529923939641696
},
        {
            "page_transition": "LINK",
            "title": "Macosx",
            "url": "https://Macosx.com/",
            "client_id": "JHeMcdEvfO7XYJn+I0xx1w\u003d\u003d",
            "time_usec": 1529923939641696
},
            {
            "page_transition": "LINK",
            "title": "Macosx",
            "url": "https://Macosx.com/",
            "client_id": "JHeMcdEvfO7XYJn+I0xx1w\u003d\u003d",
            "time_usec": 1529923939641696
},
        {
            "page_transition": "LINK",
            "title": "Macosx",
            "url": "https://Macosx.com/",
            "client_id": "JHeMcdEvfO7XYJn+I0xx1w\u003d\u003d",
            "time_usec": 1529923939641696
},
               {
            "page_transition": "LINK",
            "title": "Macosx",
            "url": "https://Macosx.com/",
            "client_id": "JHeMcdEvfO7XYJn+I0xx1w\u003d\u003d",
            "time_usec": 1529923939641696
},
        {
            "page_transition": "LINK",
            "title": "Macosx",
            "url": "https://Macosx.com/",
            "client_id": "JHeMcdEvfO7XYJn+I0xx1w\u003d\u003d",
            "time_usec": 1529923939641696
},  
              {
            "page_transition": "LINK",
            "title": "Macosx",
            "url": "https://Macosx.com/",
            "client_id": "JHeMcdEvfO7XYJn+I0xx1w\u003d\u003d",
            "time_usec": 1529923939641696
},
        {
            "page_transition": "LINK",
            "title": "Macosx",
            "url": "https://Macosx.com/",
            "client_id": "JHeMcdEvfO7XYJn+I0xx1w\u003d\u003d",
            "time_usec": 1529923939641696
},
            {
            "page_transition": "LINK",
            "title": "Macosx",
            "url": "https://Macosx.com/",
            "client_id": "JHeMcdEvfO7XYJn+I0xx1w\u003d\u003d",
            "time_usec": 1529923939641696
},
        {
            "page_transition": "LINK",
            "title": "Macosx",
            "url": "https://Macosx.com/",
            "client_id": "JHeMcdEvfO7XYJn+I0xx1w\u003d\u003d",
            "time_usec": 1529923939641696
},
            {
            "page_transition": "LINK",
            "title": "Macosx",
            "url": "https://Macosx.com/",
            "client_id": "JHeMcdEvfO7XYJn+I0xx1w\u003d\u003d",
            "time_usec": 1529923939641696
},
        {
            "page_transition": "LINK",
            "title": "Macosx",
            "url": "https://Macosx.com/",
            "client_id": "JHeMcdEvfO7XYJn+I0xx1w\u003d\u003d",
            "time_usec": 1529923939641696
},
            {
            "page_transition": "LINK",
            "title": "Macosx",
            "url": "https://Macosx.com/",
            "client_id": "JHeMcdEvfO7XYJn+I0xx1w\u003d\u003d",
            "time_usec": 1529923939641696
},
        {
            "page_transition": "LINK",
            "title": "Macosx",
            "url": "https://Macosx.com/",
            "client_id": "JHeMcdEvfO7XYJn+I0xx1w\u003d\u003d",
            "time_usec": 1529923939641696
},
            {
            "page_transition": "LINK",
            "title": "Macosx",
            "url": "https://Macosx.com/",
            "client_id": "JHeMcdEvfO7XYJn+I0xx1w\u003d\u003d",
            "time_usec": 1529923939641696
},
        {
            "page_transition": "LINK",
            "title": "Macosx",
            "url": "https://Macosx.com/",
            "client_id": "JHeMcdEvfO7XYJn+I0xx1w\u003d\u003d",
            "time_usec": 1529923939641696
},
               {
            "page_transition": "LINK",
            "title": "Macosx",
            "url": "https://Macosx.com/",
            "client_id": "JHeMcdEvfO7XYJn+I0xx1w\u003d\u003d",
            "time_usec": 1529923939641696
},
        {
            "page_transition": "LINK",
            "title": "Macosx",
            "url": "https://Macosx.com/",
            "client_id": "JHeMcdEvfO7XYJn+I0xx1w\u003d\u003d",
            "time_usec": 1529923939641696
}, 
              {
            "page_transition": "LINK",
            "title": "Macosx",
            "url": "https://Macosx.com/",
            "client_id": "JHeMcdEvfO7XYJn+I0xx1w\u003d\u003d",
            "time_usec": 1529923939641696
},
        {
            "page_transition": "LINK",
            "title": "Macosx",
            "url": "https://Macosx.com/",
            "client_id": "JHeMcdEvfO7XYJn+I0xx1w\u003d\u003d",
            "time_usec": 1529923939641696
}, 
                {
            "page_transition": "LINK",
            "title": "Macosx",
            "url": "https://Macosx.com/",
            "client_id": "JHeMcdEvfO7XYJn+I0xx1w\u003d\u003d",
            "time_usec": 1529923939641696
},
        {
            "page_transition": "LINK",
            "title": "Macosx",
            "url": "https://Macosx.com/",
            "client_id": "JHeMcdEvfO7XYJn+I0xx1w\u003d\u003d",
            "time_usec": 1529923939641696
},
              {
            "page_transition": "LINK",
            "title": "Macosx",
            "url": "https://Macosx.com/",
            "client_id": "JHeMcdEvfO7XYJn+I0xx1w\u003d\u003d",
            "time_usec": 1529923939641696
},
        {
            "page_transition": "LINK",
            "title": "Macosx",
            "url": "https://Macosx.com/",
            "client_id": "JHeMcdEvfO7XYJn+I0xx1w\u003d\u003d",
            "time_usec": 1529923939641696
},
            {
            "page_transition": "LINK",
            "title": "Macosx",
            "url": "https://Macosx.com/",
            "client_id": "JHeMcdEvfO7XYJn+I0xx1w\u003d\u003d",
            "time_usec": 1529923939641696
},
        {
            "page_transition": "LINK",
            "title": "Macosx",
            "url": "https://Macosx.com/",
            "client_id": "JHeMcdEvfO7XYJn+I0xx1w\u003d\u003d",
            "time_usec": 1529923939641696
},
            {
            "page_transition": "LINK",
            "title": "Macosx",
            "url": "https://Macosx.com/",
            "client_id": "JHeMcdEvfO7XYJn+I0xx1w\u003d\u003d",
            "time_usec": 1529923939641696
},
        {
            "page_transition": "LINK",
            "title": "Macosx",
            "url": "https://Macosx.com/",
            "client_id": "JHeMcdEvfO7XYJn+I0xx1w\u003d\u003d",
            "time_usec": 1529923939641696
},
              {
            "page_transition": "LINK",
            "title": "Macosx",
            "url": "https://Macosx.com/",
            "client_id": "JHeMcdEvfO7XYJn+I0xx1w\u003d\u003d",
            "time_usec": 1529923939641696
},
        {
            "page_transition": "LINK",
            "title": "Macosx",
            "url": "https://Macosx.com/",
            "client_id": "JHeMcdEvfO7XYJn+I0xx1w\u003d\u003d",
            "time_usec": 1529923939641696
},
            {
            "page_transition": "LINK",
            "title": "Macosx",
            "url": "https://Macosx.com/",
            "client_id": "JHeMcdEvfO7XYJn+I0xx1w\u003d\u003d",
            "time_usec": 1529923939641696
},
        {
            "page_transition": "LINK",
            "title": "Macosx",
            "url": "https://Macosx.com/",
            "client_id": "JHeMcdEvfO7XYJn+I0xx1w\u003d\u003d",
            "time_usec": 1529923939641696
},
          {
            "page_transition": "LINK",
            "title": "Macosx",
            "url": "https://Macosx.com/",
            "client_id": "JHeMcdEvfO7XYJn+I0xx1w\u003d\u003d",
            "time_usec": 1529923939641696
},
        {
            "page_transition": "LINK",
            "title": "Macosx",
            "url": "https://Macosx.com/",
            "client_id": "JHeMcdEvfO7XYJn+I0xx1w\u003d\u003d",
            "time_usec": 1529923939641696
},
        {
            "page_transition": "LINK",
            "title": "Macosx",
            "url": "https://Macosx.com/",
            "client_id": "JHeMcdEvfO7XYJn+I0xx1w\u003d\u003d",
            "time_usec": 1529923939641696
},
        {
            "page_transition": "LINK",
            "title": "Macosx",
            "url": "https://Macosx.com/",
            "client_id": "JHeMcdEvfO7XYJn+I0xx1w\u003d\u003d",
            "time_usec": 1529923939641696
},

        {
            "page_transition": "FORM_SUBMIT",
            "title": "C++ ,  , Algorithms - ",
            "url": "https://flight./Traveler/CheckOut?CSU\u003d\u0026SearchID\u003dio9s3bs9u2",
            "client_id": "JHeMcdEvfO7XYJn+I0xx1w\u003d\u003d",
            "time_usec": 1529849588088498
},

        {
            "page_transition": "LINK",
            "title": "C++ ,  , Algorithms - ",
            "url": "https://flight./FlightList/Index?org\u003dDEL-Delhi,%20India\u0026dept\u003dGOP-Gorakhpur,India\u0026adt\u003d1\u0026chd\u003d0\u0026inf\u003d%200\u0026cabin\u003d0\u0026line\u003dAny\u0026deptDT\u003d20/07/2018\u0026arrDT\u003dundefined\u0026isOneway\u003dtrue\u0026isDomestic\u003dfalse",
            "client_id": "JHeMcdEvfO7XYJn+I0xx1w\u003d\u003d",
            "time_usec": 1529849575406346
},
        {
            "page_transition": "LINK",
            "title": "C++ ,  , Algorithms - ",
            "url": "https://www./flight.html",
            "client_id": "JHeMcdEvfO7XYJn+I0xx1w\u003d\u003d",
            "time_usec": 1529849561842881
},
        {
            "page_transition": "LINK",
            "title": "C++ ,  , Algorithms - ",
            "url": "https://flight./FlightList/Index?org\u003dDEL-Delhi,%20India\u0026dept\u003dGOP-Gorakhpur,India\u0026adt\u003d1\u0026chd\u003d0\u0026inf\u003d%200\u0026cabin\u003d0\u0026line\u003dAny\u0026deptDT\u003d05/08/2018\u0026arrDT\u003dundefined\u0026isOneway\u003dtrue\u0026isDomestic\u003dfalse",
            "client_id": "JHeMcdEvfO7XYJn+I0xx1w\u003d\u003d",
            "time_usec": 1529849559301941
},
        {
            "page_transition": "LINK",
            "title": "C++ ,  , Algorithms - ",
            "url": "https://flight./FlightList/Index?org\u003dDEL-Delhi,%20India\u0026dept\u003dGOP-Gorakhpur,India\u0026adt\u003d1\u0026chd\u003d0\u0026inf\u003d%200\u0026cabin\u003d0\u0026line\u003dAny\u0026deptDT\u003d04/08/2018\u0026arrDT\u003dundefined\u0026isOneway\u003dtrue\u0026isDomestic\u003dfalse",
            "client_id": "JHeMcdEvfO7XYJn+I0xx1w\u003d\u003d",
            "time_usec": 1529849551545902
},
        {
            "page_transition": "LINK",
            "title": "C++ ,  , Algorithms - ",
            "url": "https://flight./FlightList/Index?org\u003dDEL-Delhi,%20India\u0026dept\u003dGOP-Gorakhpur,India\u0026adt\u003d1\u0026chd\u003d0\u0026inf\u003d%200\u0026cabin\u003d0\u0026line\u003dAny\u0026deptDT\u003d05/08/2018\u0026arrDT\u003dundefined\u0026isOneway\u003dtrue\u0026isDomestic\u003dfalse",
            "client_id": "JHeMcdEvfO7XYJn+I0xx1w\u003d\u003d",
            "time_usec": 1529849531991953
},
        {
            "page_transition": "LINK",
            "title": "C++ ,  , Algorithms - ",
            "url": "https://www./flight.html",
            "client_id": "JHeMcdEvfO7XYJn+I0xx1w\u003d\u003d",
            "time_usec": 1529849457651545
},
        {
            "page_transition": "TYPED",
            "title": "C++ ,  , Algorithms - ",
            "url": "https://www./",
            "client_id": "JHeMcdEvfO7XYJn+I0xx1w\u003d\u003d",
            "time_usec": 1529849455437754
},
        {
            "page_transition": "RELOAD",
            "title": "Voltas",
            "url": "https://www.myvoltas.com/",
            "client_id": "JHeMcdEvfO7XYJn+I0xx1w\u003d\u003d",
            "time_usec": 1529849441676928
},
        {
            "page_transition": "TYPED",
            "title": "Voltas",
            "url": "https://www.myvoltas.com/",
            "client_id": "JHeMcdEvfO7XYJn+I0xx1w\u003d\u003d",
            "time_usec": 1529832938648509
},
        {
            "page_transition": "LINK",
            "title": "Play Store won\u2019t open, load, or download apps - Google Play Help",
            "url": "https://support.google.com/googleplay/answer/7513003?p\u003dfix_connectivity\u0026hl\u003den\u0026visit_id\u003d0-636654297240503213-2925705269\u0026rd\u003d1",
            "client_id": "JHeMcdEvfO7XYJn+I0xx1w\u003d\u003d",
            "time_usec": 1529832927774797
},
        {
            "page_transition": "RELOAD",
            "title": "round lcd - Google Search",
            "url": "https://www.google.co.in/search?q\u003dround+lcd\u0026oq\u003dround+lcd\u0026aqs\u003dchrome..69i57j35i39l2j0.11044j0j7\u0026client\u003dms-android-micromax\u0026sourceid\u003dchrome-mobile\u0026ie\u003dUTF-8#imgdii\u003dE6grEGod8AejoM:\u0026imgrc\u003ddLgl0ZtHYmWpSM:",
            "client_id": "z1f59f3Td0wkWEq+JeZG/Q\u003d\u003d",
            "time_usec": 1528219974522173
},
        {
            "page_transition": "RELOAD",
            "title": "round lcd - Google Search",
            "url": "https://www.google.co.in/search?q\u003dround+lcd\u0026oq\u003dround+lcd\u0026aqs\u003dchrome..69i57j35i39l2j0.11044j0j7\u0026client\u003dms-android-micromax\u0026sourceid\u003dchrome-mobile\u0026ie\u003dUTF-8#imgdii\u003dE6grEGod8AejoM:\u0026imgrc\u003ddLgl0ZtHYmWpSM:",
            "client_id": "z1f59f3Td0wkWEq+JeZG/Q\u003d\u003d",
            "time_usec": 1528218068038519
},
        {
            "page_transition": "LINK",
            "title": "round lcd - Google Search",
            "url": "https://www.google.co.in/search?q\u003dround+lcd\u0026oq\u003dround+lcd\u0026aqs\u003dchrome..69i57j35i39l2j0.11044j0j7\u0026client\u003dms-android-micromax\u0026sourceid\u003dchrome-mobile\u0026ie\u003dUTF-8#imgdii\u003dE6grEGod8AejoM:\u0026imgrc\u003ddLgl0ZtHYmWpSM:",
            "client_id": "z1f59f3Td0wkWEq+JeZG/Q\u003d\u003d",
            "time_usec": 1528164105317043
},
        {
            "page_transition": "LINK",
            "title": "round lcd - Google Search",
            "url": "https://www.google.co.in/search?q\u003dround+lcd\u0026oq\u003dround+lcd\u0026aqs\u003dchrome..69i57j35i39l2j0.11044j0j7\u0026client\u003dms-android-micromax\u0026sourceid\u003dchrome-mobile\u0026ie\u003dUTF-8#imgrc\u003ddLgl0ZtHYmWpSM:",
            "client_id": "z1f59f3Td0wkWEq+JeZG/Q\u003d\u003d",
            "time_usec": 1528164012980282
},
        {
            "page_transition": "LINK",
            "title": "round lcd - Google Search",
            "url": "https://www.google.co.in/search?q\u003dround+lcd\u0026oq\u003dround+lcd\u0026aqs\u003dchrome..69i57j35i39l2j0.11044j0j7\u0026client\u003dms-android-micromax\u0026sourceid\u003dchrome-mobile\u0026ie\u003dUTF-8#imgrc\u003dMugpYlJuszL71M:",
            "client_id": "z1f59f3Td0wkWEq+JeZG/Q\u003d\u003d",
            "time_usec": 1528163994434314
},
        {
            "page_transition": "LINK",
            "title": "round lcd - Google Search",
            "url": "https://www.google.co.in/search?q\u003dround+lcd\u0026oq\u003dround+lcd\u0026aqs\u003dchrome..69i57j35i39l2j0.11044j0j7\u0026client\u003dms-android-micromax\u0026sourceid\u003dchrome-mobile\u0026ie\u003dUTF-8#imgrc\u003dEfKi-oAIJGwWbM:",
            "client_id": "z1f59f3Td0wkWEq+JeZG/Q\u003d\u003d",
            "time_usec": 1528163987596425
},
        {
            "page_transition": "GENERATED",
            "title": "round lcd - Google Search",
            "url": "https://www.google.co.in/search?q\u003dround+lcd\u0026oq\u003dround+lcd\u0026aqs\u003dchrome..69i57j35i39l2j0.11044j0j7\u0026client\u003dms-android-micromax\u0026sourceid\u003dchrome-mobile\u0026ie\u003dUTF-8",
            "client_id": "z1f59f3Td0wkWEq+JeZG/Q\u003d\u003d",
            "time_usec": 1528163968144463
},
        {
            "page_transition": "AUTO_TOPLEVEL",
            "title": "New tab",
            "url": "chrome-native://newtab/",
            "client_id": "z1f59f3Td0wkWEq+JeZG/Q\u003d\u003d",
            "time_usec": 1528163921677133
},
        {
            "page_transition": "RELOAD",
            "title": "9968554454 | Truecaller",
            "url": "https://www.truecaller.com/search/in/9968554454",
            "client_id": "z1f59f3Td0wkWEq+JeZG/Q\u003d\u003d",
            "time_usec": 1528163920112567
},
        {
            "page_transition": "RELOAD",
            "title": "Zomato Coupons 2018 - Discount Codes, Promo Offers",
            "url": "https://www.couponzguru.com/zomato-coupons/?c\u003d442539",
            "client_id": "z1f59f3Td0wkWEq+JeZG/Q\u003d\u003d",
            "time_usec": 1528163915740931
},
        {
            "page_transition": "RELOAD",
            "title": "How to prepare for competitive programming ? \u2013 Andrei Margeloiu \u2013 Medium",
            "url": "https://medium.com/@andreimargeloiu/how-to-prepare-for-competitive-programming-396d557e0c12",
            "client_id": "z1f59f3Td0wkWEq+JeZG/Q\u003d\u003d",
            "time_usec": 1528163915084816
},
        {
            "page_transition": "LINK",
            "title": "Alfred - Product Hunt",
            "url": "https://www.producthunt.com/posts/alfred-5",
            "client_id": "z1f59f3Td0wkWEq+JeZG/Q\u003d\u003d",
            "time_usec": 1528163834538314
},
        {
            "page_transition": "LINK",
            "title": "9 Alternatives to Ulo - Product Hunt",
            "url": "https://www.producthunt.com/alternatives/ulo-3",
            "client_id": "z1f59f3Td0wkWEq+JeZG/Q\u003d\u003d",
            "time_usec": 1528163775612703
},
        {
            "page_transition": "FORM_SUBMIT",
            "title": "ulo owl surveillance eyes alternative - Google Search",
            "url": "https://www.google.co.in/search?client\u003dms-android-micromax\u0026ei\u003dfu0VW7vaKcSw9QOms4qYAQ\u0026q\u003dulo+owl+surveillance+eyes+alternative\u0026oq\u003dulo+owl+surveillance+eyes+alter\u0026gs_l\u003dmobile-gws-wiz-serp.1.0.33i160.48017.51639..53353...1....179.1881.0j12......0....1.........0i71j35i39j33i21j33i22i29i30.TxxL%2FJ2h3hI%3D",
            "client_id": "z1f59f3Td0wkWEq+JeZG/Q\u003d\u003d",
            "time_usec": 1528163765364378
},
        {
            "page_transition": "FORM_SUBMIT",
            "title": "ulo owl surveillance eyes making - Google Search",
            "url": "https://www.google.co.in/search?client\u003dms-android-micromax\u0026ei\u003dXe0VW_OFHNW-9QP7lLOIBQ\u0026q\u003dulo+owl+surveillance+eyes+making\u0026oq\u003dulo+owl+surveillance+eyes+\u0026gs_l\u003dmobile-gws-wiz-serp.1.0.35i39.29113.29113..31357...0....142.142.0j1......0....1.........0i71.JEk0MEwilzU%3D",
            "client_id": "z1f59f3Td0wkWEq+JeZG/Q\u003d\u003d",
            "time_usec": 1528163710554439
},
        {
            "page_transition": "GENERATED",
            "title": "ulo owl surveillance eyes - Google Search",
            "url": "https://www.google.co.in/search?q\u003dulo+owl+surveillance+eyes\u0026oq\u003dulo+\u0026aqs\u003dchrome.2.69i57j35i39l2j0.6414j0j4\u0026client\u003dms-android-micromax\u0026sourceid\u003dchrome-mobile\u0026ie\u003dUTF-8",
            "client_id": "z1f59f3Td0wkWEq+JeZG/Q\u003d\u003d",
            "time_usec": 1528163677483035
},
        {
            "page_transition": "RELOAD",
            "title": "Steven Nomena: How to fix \"Unfortunately, Trebuchet has stopped\" for Android",
            "url": "http://stevennomena.blogspot.com/2014/05/how-to-fix-unfortunately-trebuchet-has.html?m\u003d1",
            "client_id": "z1f59f3Td0wkWEq+JeZG/Q\u003d\u003d",
            "time_usec": 1528163668360685
},
        {
            "page_transition": "RELOAD",
            "title": "Steven Nomena: How to fix \"Unfortunately, Trebuchet has stopped\" for Android",
            "url": "http://stevennomena.blogspot.com/2014/05/how-to-fix-unfortunately-trebuchet-has.html?m\u003d1",
            "client_id": "z1f59f3Td0wkWEq+JeZG/Q\u003d\u003d",
            "time_usec": 1528124493582119
},
        {
            "page_transition": "LINK",
            "title": "Steven Nomena: How to fix \"Unfortunately, Trebuchet has stopped\" for Android",
            "url": "http://stevennomena.blogspot.com/2014/05/how-to-fix-unfortunately-trebuchet-has.html?m\u003d1",
            "client_id": "z1f59f3Td0wkWEq+JeZG/Q\u003d\u003d",
            "time_usec": 1528048367453668
},
        {
            "page_transition": "FORM_SUBMIT",
            "title": "trebuchet problem in yureka - Google Search",
            "url": "https://www.google.co.in/search?client\u003dms-android-micromax\u0026ei\u003d1ioUW9PZKoKv9QPb0oXIBA\u0026q\u003dtrebuchet+problem+in+yureka\u0026oq\u003dtrebuchet+pro\u0026gs_l\u003dmobile-gws-wiz-serp.1.2.0l3j0i20i263l2.5682.6922..8719...0....166.575.0j4......0....1.........0i71j0i67.efsqkmat%2BMU%3D",
            "client_id": "z1f59f3Td0wkWEq+JeZG/Q\u003d\u003d",
            "time_usec": 1528048353001759
},
        {
            "page_transition": "FORM_SUBMIT",
            "title": "trebuchet - Google Search",
            "url": "https://www.google.co.in/search?client\u003dms-android-micromax\u0026ei\u003dlTMSW-LSF4Kd9QPSjZrADw\u0026q\u003dtrebuchet\u0026oq\u003dtrebu\u0026gs_l\u003dmobile-gws-wiz-serp.1.0.0i67l4j0.35666.639696..641958...1....400.4440.0j26j4-1......0....1.......3..0i71j35i39j0i131i67.yzhOOZVx0uE%3D",
            "client_id": "z1f59f3Td0wkWEq+JeZG/Q\u003d\u003d",
            "time_usec": 1528048342716988
},
        {
            "page_transition": "RELOAD",
            "title": "thinking out loud lyrics - Google Search",
            "url": "https://www.google.co.in/search?client\u003dms-android-micromax\u0026ei\u003dpTISW5H4M4W7rQHQo7CQAg\u0026q\u003dthinking+out+loud+lyrics\u0026oq\u003dthin\u0026gs_l\u003dmobile-gws-wiz-serp.1.1.35i39l2j0i67l3.226404.237089..238019...1....186.2700.0j17......0....1.......3..0i71j0i131.RD3URUCM2NU%3D",
            "client_id": "z1f59f3Td0wkWEq+JeZG/Q\u003d\u003d",
            "time_usec": 1528047698980429
},
        {
            "page_transition": "RELOAD",
            "title": "thinking out loud lyrics - Google Search",
            "url": "https://www.google.co.in/search?client\u003dms-android-micromax\u0026ei\u003dpTISW5H4M4W7rQHQo7CQAg\u0026q\u003dthinking+out+loud+lyrics\u0026oq\u003dthin\u0026gs_l\u003dmobile-gws-wiz-serp.1.1.35i39l2j0i67l3.226404.237089..238019...1....186.2700.0j17......0....1.......3..0i71j0i131.RD3URUCM2NU%3D",
            "client_id": "z1f59f3Td0wkWEq+JeZG/Q\u003d\u003d",
            "time_usec": 1528047447948950
},
        {
            "page_transition": "RELOAD",
            "title": "thinking out loud lyrics - Google Search",
            "url": "https://www.google.co.in/search?client\u003dms-android-micromax\u0026ei\u003dpTISW5H4M4W7rQHQo7CQAg\u0026q\u003dthinking+out+loud+lyrics\u0026oq\u003dthin\u0026gs_l\u003dmobile-gws-wiz-serp.1.1.35i39l2j0i67l3.226404.237089..238019...1....186.2700.0j17......0....1.......3..0i71j0i131.RD3URUCM2NU%3D",
            "client_id": "z1f59f3Td0wkWEq+JeZG/Q\u003d\u003d",
            "time_usec": 1528047167725742
},
        {
            "page_transition": "RELOAD",
            "title": "thinking out loud lyrics - Google Search",
            "url": "https://www.google.co.in/search?client\u003dms-android-micromax\u0026ei\u003dpTISW5H4M4W7rQHQo7CQAg\u0026q\u003dthinking+out+loud+lyrics\u0026oq\u003dthin\u0026gs_l\u003dmobile-gws-wiz-serp.1.1.35i39l2j0i67l3.226404.237089..238019...1....186.2700.0j17......0....1.......3..0i71j0i131.RD3URUCM2NU%3D",
            "client_id": "z1f59f3Td0wkWEq+JeZG/Q\u003d\u003d",
            "time_usec": 1527998389439457
},
        {
            "page_transition": "RELOAD",
            "title": "thinking out loud lyrics - Google Search",
            "url": "https://www.google.co.in/search?client\u003dms-android-micromax\u0026ei\u003dpTISW5H4M4W7rQHQo7CQAg\u0026q\u003dthinking+out+loud+lyrics\u0026oq\u003dthin\u0026gs_l\u003dmobile-gws-wiz-serp.1.1.35i39l2j0i67l3.226404.237089..238019...1....186.2700.0j17......0....1.......3..0i71j0i131.RD3URUCM2NU%3D",
            "client_id": "z1f59f3Td0wkWEq+JeZG/Q\u003d\u003d",
            "time_usec": 1527969998401291
},
        {
            "page_transition": "FORM_SUBMIT",
            "title": "thinking out loud lyrics - Google Search",
            "url": "https://www.google.co.in/search?client\u003dms-android-micromax\u0026ei\u003dpTISW5H4M4W7rQHQo7CQAg\u0026q\u003dthinking+out+loud+lyrics\u0026oq\u003dthin\u0026gs_l\u003dmobile-gws-wiz-serp.1.1.35i39l2j0i67l3.226404.237089..238019...1....186.2700.0j17......0....1.......3..0i71j0i131.RD3URUCM2NU%3D",
            "client_id": "z1f59f3Td0wkWEq+JeZG/Q\u003d\u003d",
            "time_usec": 1527919509384218
},
        {
            "page_transition": "FORM_SUBMIT",
            "title": "love yourself lyrics - Google Search",
            "url": "https://www.google.co.in/search?client\u003dms-android-micromax\u0026ei\u003dFC8SW9z5BYy_rQHVq5X4Aw\u0026q\u003dlove+yourself+lyrics\u0026oq\u003dlove+your\u0026gs_l\u003dmobile-gws-wiz-serp.1.0.0i131i67j0i67l2j0j0i2i159i131i67.906674.910606..911458...1....256.3535.0j18j3......0....1.......3..0i71j35i39j0i2i159i67.6RQaGbkbz9E%3D",
            "client_id": "z1f59f3Td0wkWEq+JeZG/Q\u003d\u003d",
            "time_usec": 1527919269897399
},
        {
            "page_transition": "GENERATED",
            "title": "closer lyrics - Google Search",
            "url": "https://www.google.co.in/search?q\u003dcloser+lyrics\u0026oq\u003dclo\u0026aqs\u003dchrome.0.35i39j69i57j0j5.1697j0j7\u0026client\u003dms-android-micromax\u0026sourceid\u003dchrome-mobile\u0026ie\u003dUTF-8",
            "client_id": "z1f59f3Td0wkWEq+JeZG/Q\u003d\u003d",
            "time_usec": 1527918356070746
},
        {
            "page_transition": "AUTO_TOPLEVEL",
            "title": "New tab",
            "url": "chrome-native://newtab/",
            "client_id": "z1f59f3Td0wkWEq+JeZG/Q\u003d\u003d",
            "time_usec": 1527918349955401
},
        {
            "page_transition": "LINK",
            "title": "How to prepare for competitive programming ? \u2013 Andrei Margeloiu \u2013 Medium",
            "url": "https://medium.com/@andreimargeloiu/how-to-prepare-for-competitive-programming-396d557e0c12",
            "client_id": "z1f59f3Td0wkWEq+JeZG/Q\u003d\u003d",
            "time_usec": 1527915805392873
},
        {
            "page_transition": "LINK",
            "title": "How to prepare for competitive programming ? \u2013 Andrei Margeloiu \u2013 Medium",
            "url": "https://medium.com/@andreimargeloiu/how-to-prepare-for-competitive-programming-396d557e0c12",
            "client_id": "z1f59f3Td0wkWEq+JeZG/Q\u003d\u003d",
            "time_usec": 1527915802492239
},
        {
            "page_transition": "LINK",
            "title": "",
            "url": "https://www.google.co.in/url?sa\u003dt\u0026source\u003dweb\u0026rct\u003dj\u0026url\u003dhttps://medium.com/%40andreimargeloiu/how-to-prepare-for-competitive-programming-396d557e0c12\u0026ved\u003d2ahUKEwjOl9S8mbTbAhXBRY8KHepYBOoQjjgwB3oECAcQAQ\u0026usg\u003dAOvVaw3P3efzPs3f9LnOYmy3D68q",
            "client_id": "z1f59f3Td0wkWEq+JeZG/Q\u003d\u003d",
            "time_usec": 1527915801581256
},
        {
            "page_transition": "LINK",
            "title": "Zomato Coupons 2018 - Discount Codes, Promo Offers",
            "url": "https://www.couponzguru.com/zomato-coupons/?c\u003d442539",
            "client_id": "z1f59f3Td0wkWEq+JeZG/Q\u003d\u003d",
            "time_usec": 1527754434352366
},
        {
            "page_transition": "LINK",
            "title": "Zomato Coupons 2018 - Discount Codes, Promo Offers",
            "url": "https://www.couponzguru.com/zomato-coupons/?gclid\u003dCjwKCAjwur7YBRA_EiwASXqIHGnzYLWOiQQ2FuQa8IAL825qmn4h-BKD9zVrHb1YJtd4hfFFZBMuzRoCbeYQAvD_BwE",
            "client_id": "z1f59f3Td0wkWEq+JeZG/Q\u003d\u003d",
            "time_usec": 1527754374883057
},
        {
            "page_transition": "GENERATED",
            "title": "zomato cupon - Google Search",
            "url": "https://www.google.co.in/search?q\u003dzomato+cupon\u0026oq\u003dzomato+cupon+\u0026aqs\u003dchrome..69i57.6630j0j4\u0026client\u003dms-android-micromax\u0026sourceid\u003dchrome-mobile\u0026ie\u003dUTF-8",
            "client_id": "z1f59f3Td0wkWEq+JeZG/Q\u003d\u003d",
            "time_usec": 1527754363268552
},
        {
            "page_transition": "RELOAD",
            "title": "2018 FIFA World Cup Complete Match Schedule in Indian Time (IST)",
            "url": "https://www.indiancrux.info/2017/06/2018-fifa-world-cup-complete-match-schedule-india-time.html?m\u003d1",
            "client_id": "z1f59f3Td0wkWEq+JeZG/Q\u003d\u003d",
            "time_usec": 1527754353563282
},
        {
            "page_transition": "LINK",
            "title": "2018 FIFA World Cup Complete Match Schedule in Indian Time (IST)",
            "url": "https://www.indiancrux.info/2017/06/2018-fifa-world-cup-complete-match-schedule-india-time.html?m\u003d1",
            "client_id": "z1f59f3Td0wkWEq+JeZG/Q\u003d\u003d",
            "time_usec": 1527326388620482
},
        {
            "page_transition": "GENERATED",
            "title": "fifa 2018 fixtures pdf ist timeline - Google Search",
            "url": "https://www.google.co.in/search?q\u003dfifa+2018+fixtures+pdf+ist+timeline\u0026oq\u003dfi\u0026aqs\u003dchrome.2.69i57j35i39l2j0.3644j0j4\u0026client\u003dms-android-micromax\u0026sourceid\u003dchrome-mobile\u0026ie\u003dUTF-8",
            "client_id": "z1f59f3Td0wkWEq+JeZG/Q\u003d\u003d",
            "time_usec": 1527326385740326
},
        {
            "page_transition": "RELOAD",
            "title": "091700 43188 / +919170043188 | Truecaller",
            "url": "https://www.truecaller.com/search/in/9170043188",
            "client_id": "z1f59f3Td0wkWEq+JeZG/Q\u003d\u003d",
            "time_usec": 1527326377596444
},
        {
            "page_transition": "RELOAD",
            "title": "Truecaller",
            "url": "https://www.truecaller.com/search/in/9170043188",
            "client_id": "z1f59f3Td0wkWEq+JeZG/Q\u003d\u003d",
            "time_usec": 1527242068620689
},
        {
            "page_transition": "RELOAD",
            "title": "fa - Google Search",
            "url": "https://www.google.co.in/search?q\u003dfa\u0026oq\u003dfa\u0026aqs\u003dchrome..69i57j69i60j69i61j5i66.503j0j4\u0026client\u003dms-android-micromax\u0026sourceid\u003dchrome-mobile\u0026ie\u003dUTF-8",
            "client_id": "DoQ1Zu1SSYWBuv9+QMnxPg\u003d\u003d",
            "time_usec": 1512975899264680
},
        {
            "page_transition": "GENERATED",
            "title": "fa - Google Search",
            "url": "https://www.google.co.in/search?q\u003dfa\u0026oq\u003dfa\u0026aqs\u003dchrome..69i57j69i60j69i61j5i66.503j0j4\u0026client\u003dms-android-micromax\u0026sourceid\u003dchrome-mobile\u0026ie\u003dUTF-8",
            "client_id": "DoQ1Zu1SSYWBuv9+QMnxPg\u003d\u003d",
            "time_usec": 1512746765736290
},
        {
            "page_transition": "RELOAD",
            "title": "Zebpay | India\u0027s Leading Bitcoin Exchange",
            "url": "https://www.zebpay.com/",
            "client_id": "DoQ1Zu1SSYWBuv9+QMnxPg\u003d\u003d",
            "time_usec": 1512746764320616
},
        {
            "page_transition": "RELOAD",
            "title": "\u20b9 983,034 | Zebpay | India\u0027s Leading Bitcoin Exchange",
            "url": "https://www.zebpay.com/",
            "client_id": "DoQ1Zu1SSYWBuv9+QMnxPg\u003d\u003d",
            "time_usec": 1512658280550343
},
        {
            "page_transition": "LINK",
            "title": "\u20b9 984,650 | Zebpay | India\u0027s Leading Bitcoin Exchange",
            "url": "https://www.zebpay.com/",
            "client_id": "DoQ1Zu1SSYWBuv9+QMnxPg\u003d\u003d",
            "time_usec": 1512634928685239
},
        {
            "page_transition": "GENERATED",
            "title": "how to invest in bitcoin - Google Search",
            "url": "https://www.google.co.in/search?q\u003dhow+to+invest+in+bitcoin\u0026oq\u003dhow+to+in\u0026aqs\u003dchrome.1.69i57j0j35i39l2.4018j0j4\u0026client\u003dms-android-micromax\u0026sourceid\u003dchrome-mobile\u0026ie\u003dUTF-8#scso\u003duid_Wij5eQAMQhoKjzhMfg0a-w_7:1147",
            "client_id": "DoQ1Zu1SSYWBuv9+QMnxPg\u003d\u003d",
            "time_usec": 1512634906491700
},
        {
            "page_transition": "LINK",
            "title": "5 Things to Know Before Investing in Bitcoin 2017/2018",
            "url": "https://www.buybitcoinworldwide.com/kb/investing-in-bitcoin/",
            "client_id": "DoQ1Zu1SSYWBuv9+QMnxPg\u003d\u003d",
            "time_usec": 1512634832907418
},
        {
            "page_transition": "GENERATED",
            "title": "how to invest in bitcoin - Google Search",
            "url": "https://www.google.co.in/search?q\u003dhow+to+invest+in+bitcoin\u0026oq\u003dhow+to+in\u0026aqs\u003dchrome.1.69i57j0j35i39l2.4018j0j4\u0026client\u003dms-android-micromax\u0026sourceid\u003dchrome-mobile\u0026ie\u003dUTF-8#scso\u003duid_Wij5eQAMQhoKjzhMfg0a-w_7:1147",
            "client_id": "DoQ1Zu1SSYWBuv9+QMnxPg\u003d\u003d",
            "time_usec": 1512634824454544
},
        {
            "page_transition": "GENERATED",
            "title": "how to invest in bitcoin - Google Search",
            "url": "https://www.google.co.in/search?q\u003dhow+to+invest+in+bitcoin\u0026oq\u003dhow+to+in\u0026aqs\u003dchrome.1.69i57j0j35i39l2.4018j0j4\u0026client\u003dms-android-micromax\u0026sourceid\u003dchrome-mobile\u0026ie\u003dUTF-8#scso\u003duid_Wij5eQAMQhoKjzhMfg0a-w_7:701",
            "client_id": "DoQ1Zu1SSYWBuv9+QMnxPg\u003d\u003d",
            "time_usec": 1512634816311752
},
        {
            "page_transition": "GENERATED",
            "title": "how to invest in bitcoin - Google Search",
            "url": "https://www.google.co.in/search?q\u003dhow+to+invest+in+bitcoin\u0026oq\u003dhow+to+in\u0026aqs\u003dchrome.1.69i57j0j35i39l2.4018j0j4\u0026client\u003dms-android-micromax\u0026sourceid\u003dchrome-mobile\u0026ie\u003dUTF-8#scso\u003duid_Wij5eQAMQhoKjzhMfg0a-w_7:607",
            "client_id": "DoQ1Zu1SSYWBuv9+QMnxPg\u003d\u003d",
            "time_usec": 1512634816011061
},
        {
            "page_transition": "GENERATED",
            "title": "how to invest in bitcoin - Google Search",
            "url": "https://www.google.co.in/search?q\u003dhow+to+invest+in+bitcoin\u0026oq\u003dhow+to+in\u0026aqs\u003dchrome.1.69i57j0j35i39l2.4018j0j4\u0026client\u003dms-android-micromax\u0026sourceid\u003dchrome-mobile\u0026ie\u003dUTF-8",
            "client_id": "DoQ1Zu1SSYWBuv9+QMnxPg\u003d\u003d",
            "time_usec": 1512634747189675
},
        {
            "page_transition": "RELOAD",
            "title": "Zebpay | India\u0027s Leading Bitcoin Exchange",
            "url": "https://www.zebpay.com/",
            "client_id": "DoQ1Zu1SSYWBuv9+QMnxPg\u003d\u003d",
            "time_usec": 1512634743056226
},
        {
            "page_transition": "LINK",
            "title": "Zebpay | India\u0027s Leading Bitcoin Exchange",
            "url": "https://www.zebpay.com/",
            "client_id": "DoQ1Zu1SSYWBuv9+QMnxPg\u003d\u003d",
            "time_usec": 1512634513635469
},
        {
            "page_transition": "GENERATED",
            "title": "bitcoin to inr - Google Search",
            "url": "https://www.google.co.in/search?q\u003dbitcoin+to+inr\u0026oq\u003dbit\u0026aqs\u003dchrome.1.69i57j35i39l2j0.2592j0j9\u0026client\u003dms-android-micromax\u0026sourceid\u003dchrome-mobile\u0026ie\u003dUTF-8",
            "client_id": "DoQ1Zu1SSYWBuv9+QMnxPg\u003d\u003d",
            "time_usec": 1512634480655997
},
        {
            "page_transition": "GENERATED",
            "title": "zippay - Google Search",
            "url": "https://www.google.co.in/search?q\u003dzippay\u0026oq\u003dzippay\u0026aqs\u003dchrome..69i57j0l2j5.5616j0j4\u0026client\u003dms-android-micromax\u0026sourceid\u003dchrome-mobile\u0026ie\u003dUTF-8",
            "client_id": "DoQ1Zu1SSYWBuv9+QMnxPg\u003d\u003d",
            "time_usec": 1512634462670040
},
        {
            "page_transition": "LINK",
            "title": "Buy Now, Pay Later | Upto $1000 Interest Free | zipPay",
            "url": "https://zippay.com.au/",
            "client_id": "DoQ1Zu1SSYWBuv9+QMnxPg\u003d\u003d",
            "time_usec": 1512634347249755
},
        {
            "page_transition": "GENERATED",
            "title": "zippay - Google Search",
            "url": "https://www.google.co.in/search?q\u003dzippay\u0026oq\u003dzippay\u0026aqs\u003dchrome..69i57j0l2j5.5616j0j4\u0026client\u003dms-android-micromax\u0026sourceid\u003dchrome-mobile\u0026ie\u003dUTF-8",
            "client_id": "DoQ1Zu1SSYWBuv9+QMnxPg\u003d\u003d",
            "time_usec": 1512634332931691
},
        {
            "page_transition": "RELOAD",
            "title": "Official Kali Linux Downloads | Kali Linux",
            "url": "https://www.kali.org/downloads/",
            "client_id": "DoQ1Zu1SSYWBuv9+QMnxPg\u003d\u003d",
            "time_usec": 1512634323512031
},
        {
            "page_transition": "LINK",
            "title": "Official Kali Linux Downloads | Kali Linux",
            "url": "https://www.kali.org/downloads/",
            "client_id": "DoQ1Zu1SSYWBuv9+QMnxPg\u003d\u003d",
            "time_usec": 1512630815893086
},
        {
            "page_transition": "GENERATED",
            "title": "kali linux - Google Search",
            "url": "https://www.google.co.in/search?q\u003dkali+linux\u0026oq\u003dkali\u0026aqs\u003dchrome.1.69i57j0j5j0.2760j0j9\u0026client\u003dms-android-micromax\u0026sourceid\u003dchrome-mobile\u0026ie\u003dUTF-8",
            "client_id": "DoQ1Zu1SSYWBuv9+QMnxPg\u003d\u003d",
            "time_usec": 1512630804701286
},
        {
            "page_transition": "GENERATED",
            "title": "g - Google Search",
            "url": "https://www.google.co.in/search?q\u003dg\u0026oq\u003dg\u0026aqs\u003dchrome..69i57j35i39l2j0j69i60l2.2510j0j9\u0026client\u003dms-android-micromax\u0026sourceid\u003dchrome-mobile\u0026ie\u003dUTF-8",
            "client_id": "DoQ1Zu1SSYWBuv9+QMnxPg\u003d\u003d",
            "time_usec": 1512630668932722
},
        {
            "page_transition": "RELOAD",
            "title": "windows 10 - Google Search",
            "url": "https://www.google.co.in/search?q\u003dwindows+10\u0026oq\u003dwindows+\u0026aqs\u003dchrome.1.69i57j0l3.2745j0j4\u0026client\u003dms-android-micromax\u0026sourceid\u003dchrome-mobile\u0026ie\u003dUTF-8#scso\u003duid_WijWpwAIwKkKj7vFIQVs0A_8:448",
            "client_id": "DoQ1Zu1SSYWBuv9+QMnxPg\u003d\u003d",
            "time_usec": 1512630664111900
},
        {
            "page_transition": "GENERATED",
            "title": "windows 10 - Google Search",
            "url": "https://www.google.co.in/search?q\u003dwindows+10\u0026oq\u003dwindows+\u0026aqs\u003dchrome.1.69i57j0l3.2745j0j4\u0026client\u003dms-android-micromax\u0026sourceid\u003dchrome-mobile\u0026ie\u003dUTF-8#scso\u003duid_WijWpwAIwKkKj7vFIQVs0A_8:448",
            "client_id": "DoQ1Zu1SSYWBuv9+QMnxPg\u003d\u003d",
            "time_usec": 1512628939169843
},
        {
            "page_transition": "GENERATED",
            "title": "windows 10 - Google Search",
            "url": "https://www.google.co.in/search?q\u003dwindows+10\u0026oq\u003dwindows+\u0026aqs\u003dchrome.1.69i57j0l3.2745j0j4\u0026client\u003dms-android-micromax\u0026sourceid\u003dchrome-mobile\u0026ie\u003dUTF-8",
            "client_id": "DoQ1Zu1SSYWBuv9+QMnxPg\u003d\u003d",
            "time_usec": 1512626099351816
},
        {
            "page_transition": "LINK",
            "title": "Download Windows 10 Disc Image (ISO File)",
            "url": "https://www.microsoft.com/en-in/software-download/windows10ISO",
            "client_id": "DoQ1Zu1SSYWBuv9+QMnxPg\u003d\u003d",
            "time_usec": 1512625838957370
},
        {
            "page_transition": "GENERATED",
            "title": "windows 10 - Google Search",
            "url": "https://www.google.co.in/search?q\u003dwindows+10\u0026oq\u003dwindows+\u0026aqs\u003dchrome.1.69i57j0l3.2745j0j4\u0026client\u003dms-android-micromax\u0026sourceid\u003dchrome-mobile\u0026ie\u003dUTF-8",
            "client_id": "DoQ1Zu1SSYWBuv9+QMnxPg\u003d\u003d",
            "time_usec": 1512625830941398
},
        {
            "page_transition": "RELOAD",
            "title": "Bing",
            "url": "http://www.bing.com/?PC\u003dCY07\u0026FORM\u003dCYANDF",
            "client_id": "DoQ1Zu1SSYWBuv9+QMnxPg\u003d\u003d",
            "time_usec": 1512625825473932
},
        {
            "page_transition": "LINK",
            "title": "From chandigarhmetro.com",
            "url": "https://www.google.co.in/amp/s/chandigarhmetro.com/jee-main-2018-registration-open-dec-1-fee-eligibility-details/amp/#ampshare\u003dhttps://chandigarhmetro.com/jee-main-2018-registration-open-dec-1-fee-eligibility-details/",
            "client_id": "DoQ1Zu1SSYWBuv9+QMnxPg\u003d\u003d",
            "time_usec": 1511668564252236
},
        {
            "page_transition": "LINK",
            "title": "From chandigarhmetro.com",
            "url": "https://www.google.co.in/amp/s/chandigarhmetro.com/jee-main-2018-registration-open-dec-1-fee-eligibility-details/amp/#ampshare\u003dhttps://chandigarhmetro.com/jee-main-2018-registration-open-dec-1-fee-eligibility-details/",
            "client_id": "DoQ1Zu1SSYWBuv9+QMnxPg\u003d\u003d",
            "time_usec": 1511668562877892
},
        {
            "page_transition": "LINK",
            "title": "Undergraduate Courses",
            "url": "http://ulp.debroc.ac.uk/undergraduate-courses?source\u003dgoogle\u0026medium\u003dcpc\u0026campaign\u003ddebroc-ug-display-int\u0026placement\u003dchandigarhmetro.com\u0026gclid\u003dEAIaIQobChMI-P7vwqvb1wIVTAqOCh2QWgIEEAEYASAAEgKkHvD_BwE\u0026mpch\u003dads",
            "client_id": "DoQ1Zu1SSYWBuv9+QMnxPg\u003d\u003d",
            "time_usec": 1511668393788487
},
        {
            "page_transition": "LINK",
            "title": "From chandigarhmetro.com",
            "url": "https://www.google.co.in/amp/s/chandigarhmetro.com/jee-main-2018-registration-open-dec-1-fee-eligibility-details/amp/#ampshare\u003dhttps://chandigarhmetro.com/jee-main-2018-registration-open-dec-1-fee-eligibility-details/",
            "client_id": "DoQ1Zu1SSYWBuv9+QMnxPg\u003d\u003d",
            "time_usec": 1511668383512148
},
        {
            "page_transition": "LINK",
            "title": "From chandigarhmetro.com",
            "url": "https://www.google.co.in/amp/s/chandigarhmetro.com/jee-main-2018-registration-open-dec-1-fee-eligibility-details/amp/#ampshare\u003dhttps://chandigarhmetro.com/jee-main-2018-registration-open-dec-1-fee-eligibility-details/",
            "client_id": "DoQ1Zu1SSYWBuv9+QMnxPg\u003d\u003d",
            "time_usec": 1511668382648955
},
        {
            "page_transition": "LINK",
            "title": "From chandigarhmetro.com",
            "url": "https://www.google.co.in/amp/s/chandigarhmetro.com/jee-main-2018-registration-open-dec-1-fee-eligibility-details/amp/#ampshare\u003dhttps://chandigarhmetro.com/jee-main-2018-registration-open-dec-1-fee-eligibility-details/",
            "client_id": "DoQ1Zu1SSYWBuv9+QMnxPg\u003d\u003d",
            "time_usec": 1511668371067472
},
        {
            "page_transition": "LINK",
            "title": "त्रुटि कोड डिवाइस प्रबंधक में Windows में",
            "url": "https://support.microsoft.com/hi-in/help/310123/error-codes-in-device-manager-in-windows",
            "client_id": "DoQ1Zu1SSYWBuv9+QMnxPg\u003d\u003d",
            "time_usec": 1511596500613738
},
        {
            "page_transition": "RELOAD",
            "title": "Bing",
            "url": "http://www.bing.com/?PC\u003dCY07\u0026FORM\u003dCYANDF",
            "client_id": "DoQ1Zu1SSYWBuv9+QMnxPg\u003d\u003d",
            "time_usec": 1511443834298339
},
        {
            "page_transition": "RELOAD",
            "title": "Bing",
            "url": "http://www.bing.com/?PC\u003dCY07\u0026FORM\u003dCYANDF",
            "client_id": "DoQ1Zu1SSYWBuv9+QMnxPg\u003d\u003d",
            "time_usec": 1509636340464016
},
        {
            "page_transition": "RELOAD",
            "title": "ndls metro station - Google Search",
            "url": "https://www.google.co.in/search?q\u003dndls+metro+station\u0026oq\u003dndls+metr\u0026aqs\u003dchrome.0.0j69i57j0l2.5833j0j4\u0026client\u003dms-android-micromax\u0026sourceid\u003dchrome-mobile\u0026ie\u003dUTF-8",
            "client_id": "DoQ1Zu1SSYWBuv9+QMnxPg\u003d\u003d",
            "time_usec": 1509636301890927
},
        {
            "page_transition": "LINK",
            "title": "ndls metro station - Google Search",
            "url": "https://www.google.co.in/search?q\u003dndls+metro+station\u0026oq\u003dndls+metr\u0026aqs\u003dchrome.0.0j69i57j0l2.5833j0j4\u0026client\u003dms-android-micromax\u0026sourceid\u003dchrome-mobile\u0026ie\u003dUTF-8#istate\u003dlrl:iv\u0026rlimm\u003d3129686029706502808",
            "client_id": "DoQ1Zu1SSYWBuv9+QMnxPg\u003d\u003d",
            "time_usec": 1509636289708227
},
        {
            "page_transition": "RELOAD",
            "title": "ndls metro station - Google Search",
            "url": "https://www.google.co.in/search?q\u003dndls+metro+station\u0026oq\u003dndls+metr\u0026aqs\u003dchrome.0.0j69i57j0l2.5833j0j4\u0026client\u003dms-android-micromax\u0026sourceid\u003dchrome-mobile\u0026ie\u003dUTF-8",
            "client_id": "DoQ1Zu1SSYWBuv9+QMnxPg\u003d\u003d",
            "time_usec": 1509636247831122
},
        {
            "page_transition": "RELOAD",
            "title": "ndls metro station - Google Search",
            "url": "https://www.google.co.in/search?q\u003dndls+metro+station\u0026oq\u003dndls+metr\u0026aqs\u003dchrome.0.0j69i57j0l2.5833j0j4\u0026client\u003dms-android-micromax\u0026sourceid\u003dchrome-mobile\u0026ie\u003dUTF-8",
            "client_id": "DoQ1Zu1SSYWBuv9+QMnxPg\u003d\u003d",
            "time_usec": 1509442509886147
},
        {
            "page_transition": "RELOAD",
            "title": "ndls metro station - Google Search",
            "url": "https://www.google.co.in/search?q\u003dndls+metro+station\u0026oq\u003dndls+metr\u0026aqs\u003dchrome.0.0j69i57j0l2.5833j0j4\u0026client\u003dms-android-micromax\u0026sourceid\u003dchrome-mobile\u0026ie\u003dUTF-8\u0026dlnr\u003d1\u0026sei\u003dNqjyWfbiPMnovATY5pvQDw#dlnr\u003d1\u0026xxri\u003d1",
            "client_id": "DoQ1Zu1SSYWBuv9+QMnxPg\u003d\u003d",
            "time_usec": 1509442508824606
},
        {
            "page_transition": "LINK",
            "title": "New Delhi metro station - Wikipedia",
            "url": "https://en.m.wikipedia.org/wiki/New_Delhi_metro_station",
            "client_id": "DoQ1Zu1SSYWBuv9+QMnxPg\u003d\u003d",
            "time_usec": 1509442508397533
},
        {
            "page_transition": "LINK",
            "title": "New Delhi metro station - Wikipedia",
            "url": "https://en.m.wikipedia.org/wiki/New_Delhi_metro_station#/media/File%3ADelhi_Metro_logo.svg",
            "client_id": "DoQ1Zu1SSYWBuv9+QMnxPg\u003d\u003d",
            "time_usec": 1509442495489478
},
        {
            "page_transition": "LINK",
            "title": "New Delhi metro station - Wikipedia",
            "url": "https://en.m.wikipedia.org/wiki/New_Delhi_metro_station",
            "client_id": "DoQ1Zu1SSYWBuv9+QMnxPg\u003d\u003d",
            "time_usec": 1509442488841346
},
        {
            "page_transition": "RELOAD",
            "title": "ndls metro station - Google Search",
            "url": "https://www.google.co.in/search?q\u003dndls+metro+station\u0026oq\u003dndls+metr\u0026aqs\u003dchrome.0.0j69i57j0l2.5833j0j4\u0026client\u003dms-android-micromax\u0026sourceid\u003dchrome-mobile\u0026ie\u003dUTF-8\u0026dlnr\u003d1\u0026sei\u003dNqjyWfbiPMnovATY5pvQDw#dlnr\u003d1\u0026xxri\u003d1",
            "client_id": "DoQ1Zu1SSYWBuv9+QMnxPg\u003d\u003d",
            "time_usec": 1509442487896784
},
        {
            "page_transition": "RELOAD",
            "title": "Route from Vaishali to New Delhi - Delhi Metro",
            "url": "https://www.google.co.in/amp/s/delhimetrorail.info/vaishali-delhi-metro-station-to-new-delhi-delhi-metro-station#ampshare\u003dhttps://delhimetrorail.info/vaishali-delhi-metro-station-to-new-delhi-delhi-metro-station?lan%3Dhi",
            "client_id": "DoQ1Zu1SSYWBuv9+QMnxPg\u003d\u003d",
            "time_usec": 1509075253592244
},
        {
            "page_transition": "LINK",
            "title": "From delhimetrorail.info",
            "url": "https://www.google.co.in/amp/s/delhimetrorail.info/vaishali-delhi-metro-station-to-new-delhi-delhi-metro-station#ampshare\u003dhttps://delhimetrorail.info/vaishali-delhi-metro-station-to-new-delhi-delhi-metro-station?lan%3Dhi",
            "client_id": "DoQ1Zu1SSYWBuv9+QMnxPg\u003d\u003d",
            "time_usec": 1509075233259877
},
        {
            "page_transition": "LINK",
            "title": "ndls metro station - Google Search",
            "url": "https://www.google.co.in/search?q\u003dndls+metro+station\u0026oq\u003dndls+metr\u0026aqs\u003dchrome.0.0j69i57j0l2.5833j0j4\u0026client\u003dms-android-micromax\u0026sourceid\u003dchrome-mobile\u0026ie\u003dUTF-8\u0026dlnr\u003d1\u0026sei\u003dNqjyWfbiPMnovATY5pvQDw",
            "client_id": "DoQ1Zu1SSYWBuv9+QMnxPg\u003d\u003d",
            "time_usec": 1509075009981525
},
        {
            "page_transition": "GENERATED",
            "title": "ndls metro station - Google Search",
            "url": "https://www.google.co.in/search?q\u003dndls+metro+station\u0026oq\u003dndls+metr\u0026aqs\u003dchrome.0.0j69i57j0l2.5833j0j4\u0026client\u003dms-android-micromax\u0026sourceid\u003dchrome-mobile\u0026ie\u003dUTF-8",
            "client_id": "DoQ1Zu1SSYWBuv9+QMnxPg\u003d\u003d",
            "time_usec": 1509074998756080
},
        {
            "page_transition": "AUTO_TOPLEVEL",
            "title": "Bing",
            "url": "http://www.bing.com/?PC\u003dCY07\u0026FORM\u003dCYANDF",
            "client_id": "DoQ1Zu1SSYWBuv9+QMnxPg\u003d\u003d",
            "time_usec": 1509074967339638
},
        {
            "page_transition": "RELOAD",
            "title": "Citibank - Payment Gateway",
            "url": "https://www.citibank.co.in/acspage/cap_nsapi.so?RID\u003d21\u0026VAA\u003dB",
            "client_id": "DoQ1Zu1SSYWBuv9+QMnxPg\u003d\u003d",
            "time_usec": 1509074214547629
},
        {
            "page_transition": "RELOAD",
            "title": " YouTube",
            "url": "https://www.irctc.co.in/e/loginHome.jsf",
            "client_id": "DoQ1Zu1SSYWBuv9+QMnxPg\u003d\u003d",
            "time_usec": 1509040913649742
},
        {
            "page_transition": "FORM_SUBMIT",
            "title": "Booking Confirmation",
            "url": "https://www.irctc.co.in/e/BankResponse",
            "client_id": "DoQ1Zu1SSYWBuv9+QMnxPg\u003d\u003d",
            "time_usec": 1508996876060530
},
        {
            "page_transition": "FORM_SUBMIT",
            "title": "Citibank - Payment Gateway",
            "url": "https://www.citibank.co.in/acspage/cap_nsapi.so?RID\u003d21\u0026VAA\u003dB",
            "client_id": "DoQ1Zu1SSYWBuv9+QMnxPg\u003d\u003d",
            "time_usec": 1508996873916651
},
        {
            "page_transition": "FORM_SUBMIT",
            "title": "Citibank - Payment Gateway",
            "url": "https://www.citibank.co.in/acspage/cap_nsapi.so?RID\u003d21\u0026VAA\u003dB",
            "client_id": "DoQ1Zu1SSYWBuv9+QMnxPg\u003d\u003d",
            "time_usec": 1508996863799701
},
        {
            "page_transition": "FORM_SUBMIT",
            "title": "Paytm Secure Online Payment Gateway",
            "url": "https://secure.paytm.in/oltp-web/processTransaction?orderid\u003d100001028413474",
            "client_id": "DoQ1Zu1SSYWBuv9+QMnxPg\u003d\u003d",
            "time_usec": 1508996843012538
},
        {
            "page_transition": "FORM_SUBMIT",
            "title": "Book Ticket - Journey Summary",
            "url": "https://www.irctc.co.in/e/jpInput.jsf?cid\u003d1",
            "client_id": "DoQ1Zu1SSYWBuv9+QMnxPg\u003d\u003d",
            "time_usec": 1508996822359078
},
        {
            "page_transition": "FORM_SUBMIT",
            "title": "Book Ticket - Passengers Information",
            "url": "https://www.irctc.co.in/e/trainbetweenstns.jsf?cid\u003d1",
            "client_id": "DoQ1Zu1SSYWBuv9+QMnxPg\u003d\u003d",
            "time_usec": 1508996777644822
},
        {
            "page_transition": "FORM_SUBMIT",
            "title": "Journey Planner",
            "url": "https://www.irctc.co.in/e/mainpage.jsf?cid\u003d1",
            "client_id": "DoQ1Zu1SSYWBuv9+QMnxPg\u003d\u003d",
            "time_usec": 1508996698935752
},
        {
            "page_transition": "FORM_SUBMIT",
            "title": "E-",
            "url": "https://www.irctc.co.in/e/jpInput.jsf?cid\u003d1",
            "client_id": "DoQ1Zu1SSYWBuv9+QMnxPg\u003d\u003d",
            "time_usec": 1508996680346649
},
        {
            "page_transition": "FORM_SUBMIT",
            "title": "Book Ticket - Passengers Information",
            "url": "https://www.irctc.co.in/e/trainbetweenstns.jsf",
            "client_id": "DoQ1Zu1SSYWBuv9+QMnxPg\u003d\u003d",
            "time_usec": 1508996656141246
},
        {
            "page_transition": "FORM_SUBMIT",
            "title": "Journey Planner",
            "url": "https://www.irctc.co.in/e/trainbetweenstns.jsf",
            "client_id": "DoQ1Zu1SSYWBuv9+QMnxPg\u003d\u003d",
            "time_usec": 1508996125844326
},
        {
            "page_transition": "FORM_SUBMIT",
            "title": "Journey Planner",
            "url": "https://www.irctc.co.in/e/mainpage.jsf",
            "client_id": "DoQ1Zu1SSYWBuv9+QMnxPg\u003d\u003d",
            "time_usec": 1508996067075453
},
        {
            "page_transition": "FORM_SUBMIT",
            "title": "E-",
            "url": "https://www.irctc.co.in/e/home",
            "client_id": "DoQ1Zu1SSYWBuv9+QMnxPg\u003d\u003d",
            "time_usec": 1508996047686129
},
        {
            "page_transition": "TYPED",
            "title": " YouTube",
            "url": "https://www.irctc.co.in/e/loginHome.jsf",
            "client_id": "DoQ1Zu1SSYWBuv9+QMnxPg\u003d\u003d",
            "time_usec": 1508996020490264
},
        {
            "page_transition": "TYPED",
            "title": " YouTube",
            "url": "https://www.irctc.co.in/e/",
            "client_id": "DoQ1Zu1SSYWBuv9+QMnxPg\u003d\u003d",
            "time_usec": 1508996020290658
},
        {
            "page_transition": "TYPED",
            "title": " YouTube",
            "url": "https://www.irctc.co.in/",
            "client_id": "DoQ1Zu1SSYWBuv9+QMnxPg\u003d\u003d",
            "time_usec": 1508996020088592
},
        {
            "page_transition": "FORM_SUBMIT",
            "title": "www.irctc.co.in",
            "url": "https://www.irctc.co.in/e/trainbetweenstns.jsf",
            "client_id": "DoQ1Zu1SSYWBuv9+QMnxPg\u003d\u003d",
            "time_usec": 1508996015372145
},
        {
            "page_transition": "FORM_SUBMIT",
            "title": "Book Ticket - Passengers Information",
            "url": "https://www.irctc.co.in/e/trainbetweenstns.jsf",
            "client_id": "DoQ1Zu1SSYWBuv9+QMnxPg\u003d\u003d",
            "time_usec": 1508995981908645
},
        {
            "page_transition": "FORM_SUBMIT",
            "title": "Journey Planner",
            "url": "https://www.irctc.co.in/e/mainpage.jsf",
            "client_id": "DoQ1Zu1SSYWBuv9+QMnxPg\u003d\u003d",
            "time_usec": 1508995965150114
},
        {
            "page_transition": "FORM_SUBMIT",
            "title": "E-",
            "url": "https://www.irctc.co.in/e/home",
            "client_id": "DoQ1Zu1SSYWBuv9+QMnxPg\u003d\u003d",
            "time_usec": 1508995948634254
},
        {
            "page_transition": "FORM_SUBMIT",
            "title": " YouTube",
            "url": "https://www.irctc.co.in/e/home",
            "client_id": "DoQ1Zu1SSYWBuv9+QMnxPg\u003d\u003d",
            "time_usec": 1508995919279108
},
        {
            "page_transition": "RELOAD",
            "title": " YouTube",
            "url": "https://www.irctc.co.in/e/loginHome.jsf",
            "client_id": "DoQ1Zu1SSYWBuv9+QMnxPg\u003d\u003d",
            "time_usec": 1508995896882932
},
        {
            "page_transition": "RELOAD",
            "title": " YouTube",
            "url": "https://www.irctc.co.in/e/trainbetweenstns.jsf",
            "client_id": "DoQ1Zu1SSYWBuv9+QMnxPg\u003d\u003d",
            "time_usec": 1508995892978254
},
        {
            "page_transition": "AUTO_BOOKMARK",
            "title": " YouTube",
            "url": "https://www.irctc.co.in/",
            "client_id": "DoQ1Zu1SSYWBuv9+QMnxPg\u003d\u003d",
            "time_usec": 1508995878078694
},
        {
            "page_transition": "AUTO_TOPLEVEL",
            "title": "New tab",
            "url": "chrome-native://newtab/",
            "client_id": "DoQ1Zu1SSYWBuv9+QMnxPg\u003d\u003d",
            "time_usec": 1508995875641233
},
        {
            "page_transition": "FORM_SUBMIT",
            "title": " YouTube",
            "url": "https://www.irctc.co.in/e/trainbetweenstns.jsf",
            "client_id": "DoQ1Zu1SSYWBuv9+QMnxPg\u003d\u003d",
            "time_usec": 1508995868167811
},
        {
            "page_transition": "AUTO_BOOKMARK",
            "title": " YouTube",
            "url": "https://www.irctc.co.in/",
            "client_id": "DoQ1Zu1SSYWBuv9+QMnxPg\u003d\u003d",
            "time_usec": 1508995828715977
},
        {
            "page_transition": "AUTO_TOPLEVEL",
            "title": "New tab",
            "url": "chrome-native://newtab/",
            "client_id": "DoQ1Zu1SSYWBuv9+QMnxPg\u003d\u003d",
            "time_usec": 1508995826040459
},
        {
            "page_transition": "FORM_SUBMIT",
            "title": "Journey Planner",
            "url": "https://www.irctc.co.in/e/mainpage.jsf",
            "client_id": "DoQ1Zu1SSYWBuv9+QMnxPg\u003d\u003d",
            "time_usec": 1508995701976459
},
        {
            "page_transition": "FORM_SUBMIT",
            "title": "E-",
            "url": "https://www.irctc.co.in/e/home",
            "client_id": "DoQ1Zu1SSYWBuv9+QMnxPg\u003d\u003d",
